City,Lat,Lng,Max Temp,Humidity,Wind Speed,Cloudiness,Country,Date
Nālūt,30.33,10.85,76.1,52,20.33,0,LY,1596784815
Pacific Grove,36.62,-121.92,59.0,93,1.99,19,US,1596784816
De-Kastri,51.47,140.78,62.26,70,12.35,100,RU,1596784816
Alice,27.75,-98.07,78.8,88,4.7,20,US,1596784816
Port Hardy,50.7,-127.42,57.2,87,5.91,75,CA,1596784748
Toppenish,46.38,-120.31,62.01,87,4.7,1,US,1596784817
Sakakah,29.97,40.21,87.8,31,16.11,0,SA,1596784817
Nikolskoye,59.7,30.79,72.0,64,2.24,40,RU,1596784629
Ahipara,-35.17,173.17,56.05,81,15.99,0,NZ,1596784733
Oistins,13.07,-59.53,82.4,83,21.92,75,BB,1596784557
Ushuaia,-54.8,-68.3,35.6,74,6.93,40,AR,1596784447
Punta Arenas,-53.15,-70.92,37.4,69,19.46,99,CL,1596784621
Mahébourg,-20.41,57.7,69.8,73,5.82,75,MU,1596784730
Thompson,55.74,-97.86,68.0,72,5.82,20,CA,1596784693
Vaini,-21.2,-175.2,69.8,88,5.82,20,TO,1596784622
Busselton,-33.65,115.33,61.0,42,8.5,78,AU,1596784626
Conceição do Araguaia,-8.26,-49.26,68.99,53,3.44,0,BR,1596784819
Cape Town,-33.93,18.42,53.01,93,3.36,0,ZA,1596784464
Cherskiy,68.75,161.3,44.98,85,8.75,100,RU,1596784679
Jamestown,42.1,-79.24,62.6,67,6.93,75,US,1596784584
Namatanai,-3.67,152.43,84.04,70,6.62,2,PG,1596784820
Hibbing,47.43,-92.94,55.4,100,6.58,75,US,1596784821
Mar del Plata,-38.0,-57.56,43.0,84,7.9,0,AR,1596784671
Hermanus,-34.42,19.23,46.0,87,5.99,0,ZA,1596784650
Amberley,39.2,-84.43,64.99,93,4.21,40,US,1596784821
Derzhavīnsk,51.1,66.32,87.57,26,22.62,99,KZ,1596784822
Ucluelet,48.93,-125.55,57.0,89,9.22,82,CA,1596784781
Albany,42.6,-73.97,66.0,74,3.0,92,US,1596784498
Atuona,-9.8,-139.03,79.34,71,24.2,3,PF,1596784629
Pisco,-13.7,-76.22,54.0,87,3.36,20,PE,1596784627
East London,-33.02,27.91,59.0,51,11.41,5,ZA,1596784823
Rikitea,-23.12,-134.97,68.63,74,17.22,100,PF,1596784623
Constitución,-35.33,-72.42,44.69,74,6.13,0,CL,1596784824
Mabaruma,8.2,-59.78,72.5,98,1.48,23,GY,1596784824
Mount Gambier,-37.83,140.77,51.8,66,20.8,100,AU,1596784675
Atbasar,51.8,68.33,85.08,26,18.01,0,KZ,1596784825
Chiredzi,-21.05,31.67,65.35,68,14.25,100,ZW,1596784825
Buchanan,5.88,-10.05,75.2,88,5.64,75,LR,1596784825
Pineville,31.32,-92.43,73.0,94,3.36,1,US,1596784826
Ulladulla,-35.35,150.47,51.8,100,1.12,75,AU,1596784784
Megion,61.03,76.11,77.0,38,2.24,5,RU,1596784826
Bambous Virieux,-20.34,57.76,73.0,73,5.82,75,MU,1596784826
Chui,-33.7,-53.46,52.21,85,9.89,22,UY,1596784663
Mataura,-46.19,168.86,45.0,90,8.99,100,NZ,1596784628
Udachny,66.42,112.4,77.0,44,6.71,90,RU,1596784739
Marabu,4.41,114.01,91.4,55,8.05,40,MY,1596784827
Sur,22.57,59.53,94.33,42,18.39,100,OM,1596784729
Lagoa,39.05,-27.98,69.04,86,19.57,100,PT,1596784690
Saskylakh,71.92,114.08,68.74,45,13.51,73,RU,1596784622
Kapaa,22.08,-159.32,78.8,88,16.11,75,US,1596784348
Lorengau,-2.02,147.27,83.97,72,6.73,21,PG,1596784621
Vardø,70.37,31.11,51.8,93,9.17,40,NO,1596784661
Dikson,73.51,80.55,47.84,95,12.3,100,RU,1596784829
Manokwari,-0.87,134.08,78.3,83,5.7,100,ID,1596784465
Damaturu,11.75,11.96,70.99,85,14.03,100,NG,1596784829
New Norfolk,-42.78,147.06,48.0,80,2.46,93,AU,1596784624
Cumberland,35.05,-78.87,77.0,94,5.77,75,US,1596784538
Houston,29.76,-95.36,82.4,83,5.82,1,US,1596784373
Saint-Philippe,-21.36,55.77,75.2,53,11.41,92,RE,1596784688
Ribeira Grande,38.52,-28.7,71.6,83,9.17,75,PT,1596784697
Hongjiang,27.11,110.0,93.63,50,11.56,100,CN,1596784831
Vilyuysk,63.76,121.62,81.05,29,6.71,47,RU,1596784831
Kenai,60.55,-151.26,57.2,76,6.93,90,US,1596784656
Borovsk,55.21,36.49,71.6,49,11.18,0,RU,1596784831
Pochutla,15.74,-96.47,76.19,90,2.84,100,MX,1596784832
Acapulco de Juárez,16.86,-99.89,80.51,79,3.83,98,MX,1596784400
Klaksvík,62.23,-6.59,51.8,100,13.87,100,FO,1596784660
Airai,-8.93,125.41,70.45,65,1.48,61,TL,1596784833
Santa Cruz de la Sierra,-17.8,-63.17,64.4,88,5.82,20,BO,1596784833
Qaanaaq,77.48,-69.36,34.43,81,6.06,0,GL,1596784642
Itarema,-2.92,-39.92,75.87,74,16.26,0,BR,1596784834
Teluknaga,-6.1,106.64,93.99,62,14.99,20,ID,1596784834
Cabo San Lucas,22.89,-109.91,80.01,76,8.32,17,MX,1596784769
George Town,5.41,100.34,89.6,62,10.29,20,MY,1596784467
Mehamn,71.04,27.85,57.2,76,9.17,100,NO,1596784835
Hithadhoo,-0.6,73.08,83.21,79,16.31,87,MV,1596784611
Port Macquarie,-31.43,152.92,52.0,100,6.93,90,AU,1596784836
Yar-Sale,66.83,70.83,71.51,42,8.23,63,RU,1596784716
Newport,51.59,-3.0,63.0,98,2.24,0,GB,1596784707
Swan River,52.11,-101.27,64.22,71,4.9,57,CA,1596784836
Calderitas,18.55,-88.25,78.96,86,9.62,100,MX,1596784836
Butaritari,3.07,172.79,83.35,77,18.95,40,KI,1596784619
Xining,36.62,101.77,77.0,57,5.77,12,CN,1596784734
Mandan,46.83,-100.89,69.8,88,8.05,75,US,1596784837
Lüderitz,-26.65,15.16,66.2,12,26.4,0,NA,1596784838
Kismayo,-0.36,42.55,79.56,66,18.28,34,SO,1596784838
Tura,25.52,90.22,85.59,80,5.53,5,IN,1596784838
Carnarvon,-24.87,113.63,77.0,31,19.46,100,AU,1596784659
Kahului,20.89,-156.47,78.8,78,11.41,75,US,1596784653
Sahuaripa,29.05,-109.23,73.74,79,2.33,100,MX,1596784839
Waingapu,-9.66,120.26,81.37,60,12.82,0,ID,1596784839
Ponta do Sol,32.67,-17.1,68.0,72,1.19,20,PT,1596784633
Abapó,-18.83,-63.47,58.68,72,2.37,0,BO,1596784840
Provideniya,64.38,-173.3,51.8,71,6.71,0,RU,1596784619
Gayéri,12.65,0.49,72.73,93,7.87,100,BF,1596784840
Hilo,19.73,-155.09,78.8,83,4.7,90,US,1596784654
Narsaq,60.92,-46.05,44.6,93,3.36,100,GL,1596784668
Port Elizabeth,-33.92,25.57,55.4,66,5.82,40,ZA,1596784573
Oddur,4.12,43.89,79.39,48,21.34,100,SO,1596784841
Faanui,-16.48,-151.75,77.92,77,19.51,3,PF,1596784628
Lata,40.16,-8.33,64.99,99,1.01,2,PT,1596784842
Bluff,-46.6,168.33,45.0,90,8.99,100,NZ,1596784631
Puerto del Rosario,28.5,-13.86,73.4,73,16.11,75,ES,1596784842
Morro Bay,35.37,-120.85,57.99,96,0.96,5,US,1596784687
Longyearbyen,78.22,15.64,48.2,93,5.82,90,SJ,1596784632
Milton,34.13,-84.3,73.0,94,4.38,9,US,1596784843
Sabha,27.04,14.43,95.22,11,11.74,0,LY,1596784843
Kang,-23.68,22.79,46.54,51,10.31,0,BW,1596784843
Tasiilaq,65.61,-37.64,42.8,81,5.82,96,GL,1596784617
Lompoc,34.64,-120.46,55.4,93,8.05,93,US,1596784702
Saint-Augustin,51.23,-58.65,58.01,84,9.98,7,CA,1596784844
Hobart,-42.88,147.33,48.2,81,5.82,75,AU,1596784628
Kavaratti,10.57,72.64,84.2,74,9.17,40,IN,1596784646
Zhigansk,66.77,123.37,72.63,40,8.5,100,RU,1596784634
Olafsvik,64.89,-23.71,51.46,76,12.53,100,IS,1596784845
Disna,55.57,28.2,70.3,66,2.53,12,BY,1596784846
Nishihara,26.18,127.76,89.6,70,12.75,40,JP,1596784846
Olinda,-8.01,-34.86,77.0,73,14.99,40,BR,1596784846
Port Alfred,-33.59,26.89,56.59,69,13.56,34,ZA,1596784621
Rurrenabaque,-14.44,-67.53,71.2,66,1.99,85,BO,1596784847
Samarai,-10.62,150.67,80.76,83,12.03,70,PG,1596784740
Krasnosel'kup,65.7,82.47,75.27,41,10.42,0,RU,1596784732
Dingle,11.0,122.67,81.52,85,9.04,100,PH,1596784700
Saint George,37.1,-113.58,80.6,10,3.27,1,US,1596784770
Tautira,-17.73,-149.15,78.8,57,9.17,20,PF,1596784848
Arraial do Cabo,-22.97,-42.03,68.31,73,17.0,0,BR,1596784402
Busdi,8.28,125.25,73.17,88,2.75,100,PH,1596784849
Castro,-24.79,-50.01,49.69,85,2.13,0,BR,1596784641
Bredasdorp,-34.53,20.04,50.0,87,4.7,0,ZA,1596784561
Alofi,-19.06,-169.92,69.8,94,6.93,95,NU,1596784680
Yellowknife,62.46,-114.35,64.0,77,6.93,40,CA,1596784370
Chicama,-7.84,-79.15,58.05,83,2.64,43,PE,1596784850
Haines Junction,60.75,-137.51,43.52,77,5.21,61,CA,1596784681
Hobyo,5.35,48.53,81.73,62,28.86,29,SO,1596784672
Neya,58.3,43.87,68.81,60,8.77,36,RU,1596784851
Harper,4.38,-7.72,74.26,75,7.25,100,LR,1596784851
Otane,-39.88,176.63,46.0,88,1.07,100,NZ,1596784852
Bubaque,11.28,-15.83,79.11,83,12.97,100,GW,1596784852
Labuhan,-6.88,112.21,83.34,66,8.77,62,ID,1596784716
Saldanha,-33.01,17.94,44.6,70,3.36,0,ZA,1596784853
Il’inskiy,55.62,38.12,75.2,44,8.95,3,RU,1596784853
Mareeba,-17.0,145.43,80.01,83,4.7,75,AU,1596784625
Kozel'sk,54.04,35.77,71.6,56,6.71,11,RU,1596784854
Palmer,42.16,-72.33,64.99,82,3.36,1,US,1596784854
Vila Velha,-20.33,-40.29,66.2,93,4.7,40,BR,1596784854
Timóteo,-19.58,-42.64,55.31,89,1.66,0,BR,1596784854
Te Anau,-45.42,167.72,42.91,90,4.54,100,NZ,1596784645
Broome,42.25,-75.83,62.01,93,5.82,90,US,1596784478
Banda Aceh,5.56,95.32,88.75,58,14.43,57,ID,1596784742
Sarangani,5.4,125.46,83.26,71,9.06,100,PH,1596784855
Port Hedland,-20.32,118.57,75.2,44,14.99,0,AU,1596784856
La Rioja,42.25,-2.5,75.2,60,5.82,0,ES,1596784856
Biryusinsk,55.96,97.82,60.1,94,8.93,100,RU,1596784856
Ukiah,39.15,-123.21,66.2,63,3.2,1,US,1596784788
Saint-Pierre,-21.34,55.48,75.2,53,11.41,97,RE,1596784857
Sørland,67.67,12.69,55.4,93,5.53,90,NO,1596784637
Fortuna,40.6,-124.16,57.0,91,3.51,31,US,1596784757
Poya,-21.35,165.15,68.95,73,6.76,97,NC,1596784857
Alexandria,31.22,29.96,84.2,74,6.93,0,EG,1596784858
Kyren,51.68,102.14,66.06,68,3.62,100,RU,1596784858
Port Blair,11.67,92.75,84.74,76,12.91,100,IN,1596784746
Muros,42.78,-9.06,66.99,88,5.82,90,ES,1596784728
Husavik,66.04,-17.34,51.8,87,11.41,90,IS,1596784859
Departamento de Maldonado,-34.67,-54.92,46.99,93,4.7,90,UY,1596784859
Cidreira,-30.18,-50.21,59.34,74,2.89,0,BR,1596784686
Avarua,-21.21,-159.78,75.2,94,6.93,60,CK,1596784643
Hong Kong,22.29,114.16,91.0,55,5.01,49,HK,1596784573
Saint Paul Harbor,57.79,-152.41,51.8,87,4.7,90,US,1596784860
Ponta Delgada,37.73,-25.67,62.6,88,3.36,20,PT,1596784765
Jega,12.22,4.38,73.67,89,10.83,100,NG,1596784861
Carlsbad,33.16,-117.35,64.4,93,1.59,1,US,1596784751
Poum,-20.23,164.02,71.87,70,8.99,100,NC,1596784639
Port Lincoln,-34.73,135.87,53.35,67,19.66,100,AU,1596784690
Merrill,45.18,-89.68,60.01,100,5.03,1,US,1596784862
Nynäshamn,58.9,17.95,70.0,58,8.08,71,SE,1596784702
Niğde,37.83,34.75,78.31,18,11.25,0,TR,1596784862
Kidal,18.44,1.41,90.72,44,20.92,19,ML,1596784863
Hvolsvollur,63.75,-20.22,50.0,93,14.99,75,IS,1596784863
Mount Isa,-20.73,139.5,75.2,19,10.29,0,AU,1596784708
Codrington,-38.27,141.97,50.7,77,15.52,100,AU,1596784702
Ca Mau,9.18,105.15,84.94,75,11.27,100,VN,1596784686
Pangnirtung,66.15,-65.71,41.88,79,2.91,84,CA,1596784865
Bonito,-21.12,-56.48,61.16,40,0.74,0,BR,1596784865
Ternate,0.8,127.4,82.38,78,9.95,52,ID,1596784866
Neepawa,50.23,-99.47,60.8,93,5.82,5,CA,1596784866
Tabuk,17.42,121.44,88.12,62,4.45,100,PH,1596784732
Haverfordwest,51.8,-4.97,64.4,93,12.75,95,GB,1596784867
Ketchikan,55.34,-131.65,57.2,100,4.7,90,US,1596784786
Goderich,43.75,-81.72,59.0,84,6.87,0,CA,1596784704
Roswell,34.02,-84.36,75.0,88,3.36,20,US,1596784775
La Romana,18.43,-68.97,77.0,88,4.7,20,DO,1596784868
Esperance,-33.87,121.9,55.4,71,11.41,75,AU,1596784727
Tiksi,71.69,128.87,54.27,74,1.34,100,RU,1596784707
Freeport,40.66,-73.58,72.0,73,8.12,1,US,1596784868
Saran,47.95,1.88,71.01,56,4.7,0,FR,1596784869
Mayo,38.89,-76.51,75.0,100,3.36,75,US,1596784657
Kiryat Gat,31.61,34.76,82.0,56,1.99,0,IL,1596784804
Lebu,-37.62,-73.65,44.96,76,15.14,1,CL,1596784620
Santa Rosa,14.31,121.11,80.6,78,12.75,100,PH,1596784611
Karachi,24.91,67.08,93.2,63,17.22,75,PK,1596784643
Lahore,31.55,74.34,91.4,63,14.99,40,PK,1596784665
Honningsvåg,70.98,25.97,53.6,93,10.29,75,NO,1596784647
Hervey Bay,-25.3,152.85,64.0,92,14.0,100,AU,1596784871
Port-Gentil,-0.72,8.78,77.0,83,6.17,40,GA,1596784871
Iqaluit,63.75,-68.51,42.8,93,2.24,75,CA,1596784698
Zarichne,51.81,26.13,72.25,73,8.7,81,UA,1596784872
Butka,56.72,63.79,80.67,47,5.97,0,RU,1596784872
Debre Tabor,11.85,38.02,55.54,96,5.26,75,ET,1596784872
Liepāja,56.54,21.04,71.6,60,4.7,0,LV,1596784872
Umeå,63.83,20.26,68.0,77,10.29,0,SE,1596784873
Nanortalik,60.14,-45.24,46.56,77,11.59,100,GL,1596784873
Souillac,-20.52,57.52,69.8,73,5.82,75,MU,1596784388
Oktyabr'skoye,43.06,44.74,80.6,44,4.47,0,RU,1596784678
Kushmurun,52.45,64.63,85.78,26,20.18,98,KZ,1596784874
George,-33.96,22.46,53.6,62,2.24,0,ZA,1596784874
Puerto Ayora,-0.74,-90.35,64.99,97,1.99,75,EC,1596784655
Fenoarivo Atsinanana,-17.37,49.42,71.6,73,9.17,75,MG,1596784875
Khatanga,71.97,102.5,66.76,52,12.57,100,RU,1596784709
Santa Maria,-29.68,-53.81,58.93,88,3.8,0,BR,1596784875
Bahía Honda,22.9,-83.16,78.46,83,5.75,95,CU,1596784875
Amursk,50.23,136.9,54.55,88,12.46,100,RU,1596784876
Iāwar,23.0,76.5,82.98,79,15.12,70,IN,1596784876
Kaitangata,-46.28,169.85,46.0,78,1.99,100,NZ,1596784876
Roebourne,-20.78,117.13,73.18,39,15.08,1,AU,1596784876
Denpasar,-8.65,115.22,80.6,78,16.11,40,ID,1596784790
Portland,45.52,-122.68,60.01,77,5.06,18,US,1596784470
Verkhnyaya Inta,65.98,60.31,64.54,66,6.98,100,RU,1596784877
Pļaviņas,56.62,25.73,71.44,57,3.27,26,LV,1596784877
Nacala,-14.54,40.67,77.83,58,8.5,92,MZ,1596784878
Kindu,-2.95,25.95,82.35,59,4.29,0,CD,1596784878
Willowmore,-33.29,23.49,43.11,67,1.97,0,ZA,1596784878
Merauke,-8.47,140.33,80.28,80,11.32,0,ID,1596784878
Pleasant Point,-44.27,171.13,48.99,80,2.26,90,NZ,1596784879
Kalmunai,7.42,81.82,88.75,53,13.8,98,LK,1596784879
Sitka,57.05,-135.33,57.2,71,8.05,90,US,1596784652
Hoopstad,-27.83,25.91,46.58,63,11.59,0,ZA,1596784879
Chokurdakh,70.63,147.92,54.07,69,9.91,100,RU,1596784636
Marsabit,2.33,37.99,68.31,66,8.43,98,KE,1596784880
Del Rio,29.36,-100.9,87.8,55,10.29,1,US,1596784880
Valparaíso,-33.04,-71.63,51.01,87,5.82,40,CL,1596784880
Katsuura,35.13,140.3,90.0,72,4.0,0,JP,1596784772
Ürümqi,43.8,87.6,96.8,20,6.71,0,CN,1596784881
Key Largo,25.09,-80.45,84.0,1,4.0,0,US,1596784881
Dehlorān,32.69,47.27,106.86,11,1.99,0,IR,1596784881
Benghazi,32.12,20.07,81.88,63,10.56,50,LY,1596784882
Carutapera,-1.2,-46.02,75.09,89,5.61,0,BR,1596784796
Novikovo,51.15,37.89,77.25,57,9.51,0,RU,1596784882
Ancud,-41.87,-73.82,46.99,100,2.24,90,CL,1596784882
Zyryanovsk,49.74,84.27,80.98,30,4.7,0,KZ,1596784883
Isiro,2.77,27.62,74.5,80,3.18,4,CD,1596784883
Lavrentiya,65.58,-171.0,44.04,69,8.25,18,RU,1596784747
Saint-Leu,-21.15,55.28,75.2,53,11.41,82,RE,1596784883
Bethel,41.37,-73.41,66.2,93,3.8,1,US,1596784499
Guerrero Negro,27.98,-114.06,67.42,77,13.82,0,MX,1596784885
Kachug,53.96,105.88,61.95,75,10.69,100,RU,1596784885
Hasaki,35.73,140.83,91.0,62,10.29,75,JP,1596784664
São Filipe,14.9,-24.5,78.39,87,7.58,63,CV,1596784740
Shimoda,34.67,138.95,86.0,79,21.92,75,JP,1596784663
Lichinga,-13.31,35.24,62.6,72,11.41,40,MZ,1596784886
Bathsheba,13.22,-59.52,82.4,83,21.92,75,BB,1596784886
Leningradskiy,69.38,178.42,42.91,79,9.98,100,RU,1596784641
Tūkrah,32.53,20.58,82.2,59,7.52,8,LY,1596784887
Juneau,58.3,-134.42,55.99,87,17.22,90,US,1596784656
Sault Ste. Marie,46.52,-84.33,62.6,88,1.59,40,CA,1596784807
Severo-Kuril'sk,50.68,156.12,53.65,84,2.33,100,RU,1596784688
Noumea,-22.28,166.46,73.0,77,4.7,40,NC,1596784618
Port Augusta,-32.5,137.77,48.2,81,10.29,90,AU,1596784888
Upernavik,72.79,-56.15,38.08,93,10.25,100,GL,1596784640
Saint-Ambroise,48.55,-71.33,53.6,100,1.57,5,CA,1596784888
Yambio,4.57,28.4,75.33,88,0.87,100,SS,1596784889
Barrow,71.29,-156.79,39.2,86,9.17,90,US,1596784633
Mbala,-8.84,31.37,71.1,42,8.81,0,ZM,1596784889
Kruisfontein,-34.0,24.73,54.0,69,6.96,0,ZA,1596784630
Tiarei,-17.53,-149.33,78.8,57,9.17,20,PF,1596784890
Grand Gaube,-20.01,57.66,73.0,60,8.99,2,MU,1596784655
Dharmadam,11.78,75.43,77.0,100,6.93,90,IN,1596784890
Verkh-Suetka,53.3,80.05,81.73,43,7.54,15,RU,1596784891
Bernburg,51.8,11.73,75.0,60,9.17,0,DE,1596784743
Srednekolymsk,67.45,153.68,60.51,47,5.57,100,RU,1596784891
Ljungby,56.83,13.94,71.6,77,5.19,95,SE,1596784891
Meulaboh,4.14,96.13,86.86,64,7.61,27,ID,1596784892
Ipswich,52.06,1.16,71.01,82,2.24,0,GB,1596784892
Wagga Wagga,-35.12,147.37,48.2,93,21.92,90,AU,1596784892
Nouakchott,18.09,-15.98,75.2,83,10.29,40,MR,1596784642
Paracuru,-3.41,-39.03,73.0,77,5.01,0,BR,1596784749
Sept-Îles,50.2,-66.38,66.0,68,8.05,20,CA,1596784771
Poço Verde,-10.71,-38.18,62.17,93,5.3,8,BR,1596784893
Kangasala,61.46,24.08,68.0,77,4.7,20,FI,1596784893
Marawi,8.0,124.29,78.01,89,18.99,98,PH,1596784768
Sungai Penuh,-2.08,101.38,83.05,44,7.27,8,ID,1596784696
Monrovia,6.3,-10.8,75.2,88,6.22,75,LR,1596784894
Parry Sound,45.35,-80.03,63.0,90,2.82,37,CA,1596784895
Cockburn Town,21.46,-71.14,82.13,79,14.83,85,TC,1596784895
Lithakia,37.72,20.83,78.8,65,4.7,40,GR,1596784895
Qandala,11.47,49.87,93.99,44,3.04,16,SO,1596784895
Władysławowo,54.79,18.4,73.4,53,4.7,0,PL,1596784896
Nekhayevskiy,50.41,41.76,77.7,64,13.62,0,RU,1596784896
Aklavik,68.22,-135.01,60.8,72,3.36,40,CA,1596784735
Borehamwood,51.65,-0.28,72.0,82,1.12,0,GB,1596784896
Caohai,26.87,104.28,73.04,71,8.25,99,CN,1596784897
Talara,-4.58,-81.27,62.53,78,12.37,34,PE,1596784735
Tuatapere,-46.13,167.68,44.01,90,10.0,100,NZ,1596784897
Tuktoyaktuk,69.45,-133.04,53.6,93,10.29,75,CA,1596784627
Lázaro Cárdenas,17.96,-102.2,79.7,87,2.82,100,MX,1596784898
Dovolnoye,54.5,79.67,77.7,54,7.31,86,RU,1596784898
São José da Coroa Grande,-8.9,-35.15,73.33,79,13.51,1,BR,1596784783
Abhā,18.22,42.51,73.4,64,6.93,100,SA,1596784898
Sobolevo,54.43,31.9,68.67,74,6.42,0,RU,1596784702
Waterloo,43.47,-80.52,59.0,93,5.1,1,CA,1596784899
Bulawayo,-20.15,28.58,61.66,50,16.98,0,ZW,1596784899
Great Falls,47.5,-111.3,64.99,55,6.93,1,US,1596784475
Bonavista,48.65,-53.11,62.01,84,8.01,0,CA,1596784900
Torbay,47.67,-52.73,63.0,93,10.29,40,CA,1596784674
Isangel,-19.55,169.27,75.2,69,11.56,75,VU,1596784641
Mahanje,-9.93,35.33,72.95,44,5.82,0,TZ,1596784901
The Valley,18.22,-63.06,82.4,74,9.17,75,AI,1596784667
Pandan,14.05,124.17,84.2,74,12.15,100,PH,1596784681
Koslan,63.46,48.9,67.82,53,9.13,6,RU,1596784902
Kysyl-Syr,63.9,122.76,81.52,27,4.27,1,RU,1596784902
Mildura,-34.2,142.15,48.2,100,4.7,90,AU,1596784902
‘Ewa Beach,21.32,-158.01,80.6,78,4.7,75,US,1596784689
Teya,60.38,92.63,79.84,39,5.82,10,RU,1596784903
Turukhansk,65.82,87.98,72.52,45,8.72,95,RU,1596784903
Apen,53.22,7.8,72.0,64,3.36,46,DE,1596784903
Puerto Escondido,15.85,-97.07,79.09,83,6.67,100,MX,1596784904
Riyadh,24.69,46.72,102.2,10,18.34,42,SA,1596784551
Anadyr,64.75,177.48,51.8,87,6.71,75,RU,1596784645
Antibes,43.56,7.13,80.6,42,6.93,0,FR,1596784745
Granada,37.19,-3.61,75.2,47,3.36,39,ES,1596784904
Morón,-34.65,-58.62,53.01,89,5.01,100,AR,1596784905
São Raimundo Nonato,-9.02,-42.7,63.82,79,5.88,0,BR,1596784905
Vezirköprü,41.14,35.45,75.2,47,3.36,0,TR,1596784905
Syke,52.9,8.83,73.4,49,3.36,0,DE,1596784905
Shizunai-furukawachō,42.33,142.37,69.66,82,26.75,99,JP,1596784810
Storforshei,66.4,14.52,59.0,87,3.36,40,NO,1596784906
Makhinjauri,41.67,41.69,78.8,78,4.7,20,GE,1596784906
Hualmay,-11.1,-77.61,57.9,85,4.9,52,PE,1596784906
Shingū,33.73,135.98,84.2,83,6.93,75,JP,1596784651
Romny,50.75,33.47,77.61,58,8.55,0,UA,1596784907
Piteå,65.32,21.48,64.4,82,3.36,75,SE,1596784907
Touros,-5.2,-35.46,69.8,94,4.7,75,BR,1596784701
Khātegaon,22.6,76.92,84.24,76,12.59,75,IN,1596784908
Geraldton,-28.77,114.6,66.2,55,10.29,100,AU,1596784755
Coquimbo,-29.95,-71.34,48.2,93,2.24,23,CL,1596784646
Norman Wells,65.28,-126.83,60.8,82,9.17,75,CA,1596784681
Cooma,-36.23,149.13,41.0,100,9.17,90,AU,1596784892
Mossamedes,-15.2,12.15,64.44,81,4.56,50,AO,1596784785
Moba,33.23,105.02,81.25,46,9.73,100,CN,1596784909
Arrecife,28.96,-13.55,73.4,73,13.87,75,ES,1596784909
Ozinki,51.18,49.68,84.09,48,14.16,0,RU,1596784909
Bestöbe,52.5,73.1,85.89,31,3.96,0,KZ,1596784910
Kununurra,-15.77,128.73,84.2,15,8.05,0,AU,1596784910
Fort Nelson,58.81,-122.7,59.0,93,3.36,90,CA,1596784910
Vanavara,60.34,102.28,79.38,35,10.4,25,RU,1596784910
Ilanskiy,56.24,96.06,61.34,96,5.5,100,RU,1596784911
Vincennes,48.85,2.43,75.99,50,4.7,0,FR,1596784911
Chernyshevskiy,63.01,112.47,78.12,32,7.11,2,RU,1596784669
Neiafu,-18.65,-173.98,73.4,78,5.82,20,TO,1596784911
Pimentel,-6.84,-79.93,58.39,91,6.46,95,PE,1596784912
Zhezkazgan,47.8,67.71,82.4,32,8.95,90,KZ,1596784755
Buraidah,26.33,43.98,93.2,18,23.04,0,SA,1596784912
Cayenne,4.93,-52.33,73.4,100,6.69,28,GF,1596784912
Chingola,-12.53,27.88,70.5,39,9.37,5,ZM,1596784913
Guadalupe y Calvo,26.1,-106.97,57.94,86,3.36,100,MX,1596784867
Yablonovo,50.85,37.36,80.6,47,8.95,0,RU,1596784913
Rome,43.21,-75.46,57.99,93,4.0,1,US,1596784372
West Odessa,31.84,-102.5,82.4,42,14.99,1,US,1596784914
Trincomalee,8.57,81.23,90.55,55,18.81,98,LK,1596784914
Abū Zabad,12.35,29.25,80.1,68,12.71,0,SD,1596784914
Mugumu,-1.85,34.7,82.33,35,0.29,0,TZ,1596784915
Tarko-Sale,64.92,77.78,78.01,46,12.57,5,RU,1596784915
Ilulissat,69.22,-51.1,39.2,80,11.41,60,GL,1596784665
Yarmouth,41.71,-70.23,69.01,82,1.21,1,US,1596784915
Manggar,-2.88,108.27,84.49,72,10.74,2,ID,1596784916
Taman',45.21,36.72,93.2,30,13.42,0,RU,1596784916
Avera,33.19,-82.53,71.6,91,4.7,1,US,1596784788
Tual,-5.67,132.75,78.46,84,10.65,95,ID,1596784916
Yanam,16.73,82.22,87.8,70,13.87,75,IN,1596784917
Alta Floresta,-9.88,-56.09,65.95,52,4.88,6,BR,1596784783
Dawlatabad,36.41,64.91,96.13,12,9.37,0,AF,1596784707
Padang,-0.95,100.35,86.88,60,5.44,40,ID,1596784918
Fare,-16.7,-151.02,78.66,75,17.54,25,PF,1596784918
Qaqortoq,60.72,-46.03,44.6,93,3.36,100,GL,1596784918
Vyazemskiy,47.54,134.75,54.43,97,6.85,100,RU,1596784918
Kloulklubed,7.04,134.26,86.0,70,9.17,75,PW,1596784673
Margate,51.38,1.39,73.0,76,1.99,0,GB,1596784654
Campos do Jordão,-22.74,-45.59,50.0,83,3.09,0,BR,1596784748
Kilindoni,-7.91,39.67,77.22,73,12.93,82,TZ,1596784919
Maryborough,-25.53,152.7,64.0,92,14.0,100,AU,1596784920
Yangi Marg`ilon,40.43,71.72,93.2,24,4.7,0,UZ,1596784659
Tessalit,20.2,1.01,94.03,28,10.18,89,ML,1596784920
Nisporeni,47.08,28.18,84.2,44,4.7,0,MD,1596784921
Hwange,-18.37,26.5,69.62,24,5.68,0,ZW,1596784921
Tabat,-2.63,115.23,92.43,49,2.68,76,ID,1596784921
Kudahuvadhoo,2.67,72.89,84.06,75,12.39,100,MV,1596784922
Tazovsky,67.47,78.7,62.6,63,8.14,38,RU,1596784858
Presidente Epitácio,-21.76,-52.12,59.79,51,5.21,0,BR,1596784922
Baryshivka,50.36,31.32,78.8,54,4.47,59,UA,1596784922
Taoudenni,22.68,-3.98,97.9,27,5.12,0,ML,1596784768
Mastic Beach,40.77,-72.85,68.0,88,3.36,1,US,1596784923
Nabire,-3.37,135.48,80.89,85,5.97,100,ID,1596784743
Mabama,-5.13,32.53,75.94,40,7.85,6,TZ,1596784924
Kondinskoye,59.65,67.41,78.98,43,3.74,0,RU,1596784924
Lucea,18.45,-78.17,80.6,74,4.7,20,JM,1596784924
Khasan,42.43,130.64,71.37,81,9.26,20,RU,1596784925
Mokolo,10.74,13.8,68.04,81,12.66,100,CM,1596784925
Hamilton,39.18,-84.53,64.99,93,4.14,40,US,1596784513
Barillas,15.8,-91.32,61.47,93,0.92,100,GT,1596784686
Ouallam,14.32,2.09,76.48,76,13.27,100,NE,1596784926
Okha,53.57,142.95,59.14,67,8.52,0,RU,1596784926
San Patricio,19.22,-104.7,80.04,85,3.31,100,MX,1596784926
Richards Bay,-28.78,32.04,62.51,54,14.29,0,ZA,1596784636
Sierpc,52.86,19.67,71.96,76,10.11,0,PL,1596784927
Clonakilty,51.62,-8.87,62.01,100,6.93,90,IE,1596784927
Lerwick,60.15,-1.15,57.2,93,11.41,40,GB,1596784927
Gilbués,-9.83,-45.34,64.96,74,10.0,5,BR,1596784927
Pevek,69.7,170.31,35.56,96,17.25,97,RU,1596784928
Mutsu,41.29,141.22,75.2,73,14.99,75,JP,1596784928
Ayr,55.46,-4.63,64.4,77,8.05,40,GB,1596784928
Hofn,64.25,-15.21,52.7,95,11.92,100,IS,1596784711
College,64.86,-147.8,64.4,77,1.5,75,US,1596784928
Makakilo City,21.35,-158.09,80.6,78,4.7,75,US,1596784669
Havelock,34.88,-76.9,82.0,94,5.59,1,US,1596784471
Kita,13.03,-9.49,72.28,97,7.14,99,ML,1596784929
Gijón,43.54,-5.66,68.0,94,10.29,75,ES,1596784659
Tutóia,-2.76,-42.27,75.4,81,12.41,13,BR,1596784930
Baltoji Vokė,54.6,25.2,73.4,56,3.36,7,LT,1596784930
Kuala Terengganu,5.33,103.14,89.6,70,4.7,20,MY,1596784930
Nemuro,43.32,145.57,75.2,69,20.8,40,JP,1596784931
Padilla,3.22,-76.31,69.8,88,2.24,75,CO,1596784931
Black River,18.03,-77.85,80.6,74,4.7,20,JM,1596784931
Punta Alta,-38.88,-62.07,44.08,60,10.45,100,AR,1596784931
Kavieng,-2.57,150.8,84.15,74,6.96,26,PG,1596784932
Deputatsky,69.3,139.9,59.13,67,11.65,100,RU,1596784785
Pābna,24.0,89.25,91.63,66,13.04,58,BD,1596784932
Mhango,-3.28,32.85,78.91,36,6.73,2,TZ,1596784933
Abu Samrah,35.3,37.18,89.76,29,9.66,0,SY,1596784933
Ust-Maya,60.42,134.53,79.38,29,3.44,5,RU,1596784784
Lalibela,12.03,39.03,55.99,91,0.89,100,ET,1596784933
Gao,16.64,1.64,83.98,61,15.79,100,ML,1596784731
Naze,28.37,129.48,89.6,70,10.29,20,JP,1596784721
Puerto Madryn,-42.77,-65.04,47.21,51,14.99,1,AR,1596784934
Gwadar,25.12,62.33,91.85,59,12.75,100,PK,1596784935
Saint-Estève,42.71,2.84,70.0,88,4.7,90,FR,1596784935
Belyy Yar,53.6,91.39,71.6,60,2.24,99,RU,1596784935
Abadiânia,-16.2,-48.71,55.4,62,8.05,0,BR,1596784835
Nambucca Heads,-30.65,153.0,53.6,93,6.93,75,AU,1596784936
Mattru,7.62,-11.83,72.27,86,1.41,100,SL,1596784936
Urucará,-2.54,-57.76,73.62,68,1.7,0,BR,1596784936
Omsukchan,62.53,155.8,65.53,49,14.56,32,RU,1596784937
Ambunti,-4.24,142.84,87.06,62,1.99,74,PG,1596784937
Labé,11.32,-12.28,65.26,100,5.3,100,GN,1596784937
Halmstad,56.67,12.86,71.6,56,5.82,16,SE,1596784937
Vostok,46.49,135.88,55.35,100,2.06,100,RU,1596784938
Pyinmana,19.73,96.22,82.49,87,8.86,100,MM,1596784938
Sydney Mines,46.24,-60.22,64.0,77,8.05,5,CA,1596784749
Arman',59.7,150.17,64.99,62,7.7,0,RU,1596784938
Boguchany,58.38,97.45,82.09,37,10.38,97,RU,1596784939
Laas,46.62,10.7,55.4,100,3.36,20,IT,1596784939
Hvide Sande,56.0,8.13,71.01,93,2.24,100,DK,1596784773
Tacuatí,-23.45,-56.58,67.08,40,5.3,81,PY,1596784939
Oranjemund,-28.55,16.43,55.92,38,17.69,0,NA,1596784940
Yeniseysk,58.45,92.17,81.39,46,4.97,87,RU,1596784940
Urusha,54.05,122.9,68.77,54,7.58,82,RU,1596784940
Takoradze,4.88,-1.76,73.53,80,7.47,100,GH,1596784758
Camacha,33.08,-16.33,71.6,83,6.93,40,PT,1596784665
Skjervøy,70.03,20.97,59.0,77,9.17,75,NO,1596784941
Cap Malheureux,-19.98,57.61,73.0,58,13.0,0,MU,1596784761
Genhe,50.78,121.52,62.87,77,4.83,100,CN,1596784642
Batagay-Alyta,67.8,130.41,73.98,31,13.53,100,RU,1596784941
Coahuayana Viejo,18.73,-103.68,77.58,87,2.95,99,MX,1596784942
Berdigestyakh,62.1,126.7,77.97,31,5.26,42,RU,1596784848
Mabay,6.06,124.47,85.08,65,5.23,100,PH,1596784942
Médéa,36.26,2.75,68.0,68,1.34,0,DZ,1596784942
Jaciara,-15.97,-54.97,61.03,48,1.21,0,BR,1596784942
Dunedin,-45.87,170.5,48.0,81,1.99,100,NZ,1596784671
Bengkulu,-3.8,102.27,84.76,71,7.76,55,ID,1596784636
Iwanai,42.97,140.51,66.31,86,21.9,100,JP,1596784943
Kulhudhuffushi,6.62,73.07,81.7,78,10.54,100,MV,1596784944
Oussouye,12.48,-16.55,77.0,94,6.93,20,SN,1596784944
Bandarbeyla,9.49,50.81,89.49,42,32.84,66,SO,1596784720
Egvekinot,66.32,-179.17,48.34,69,6.87,98,RU,1596784945
Clyde River,70.47,-68.59,37.4,93,14.99,90,CA,1596784731
Kieta,-6.22,155.63,81.91,80,7.4,41,PG,1596784777
Juegang,32.32,121.19,84.69,84,8.14,100,CN,1596784945
Waipawa,-41.41,175.52,51.8,81,9.17,99,NZ,1596784946
Valréas,44.38,4.99,73.99,68,0.96,0,FR,1596784946
Old Saybrook,41.29,-72.38,70.0,89,6.04,100,US,1596784946
Champawat,29.33,80.1,79.99,69,5.28,77,IN,1596784947
Sfântu Gheorghe,45.87,25.78,72.9,55,5.21,47,RO,1596784906
Gafargaon,24.43,90.57,87.8,74,8.05,75,BD,1596784947
Plettenberg Bay,-34.05,23.37,53.74,64,3.18,0,ZA,1596784712
Katakwi,1.89,33.97,73.65,72,4.94,100,UG,1596784948
Marsá Maţrūḩ,31.35,27.25,80.6,44,6.93,0,EG,1596784948
Bitung,1.45,125.18,89.6,59,3.36,20,ID,1596784948
Ust-Tsilma,65.44,52.15,62.94,69,7.56,88,RU,1596784948
Severodvinsk,64.56,39.83,68.0,72,6.71,20,RU,1596784949
Dārāb,28.75,54.54,103.08,9,2.59,0,IR,1596784949
Teguise,29.06,-13.56,73.4,73,13.87,75,ES,1596784949
Gamba,-2.65,10.0,74.25,74,2.48,26,GA,1596784696
Warri,5.52,5.75,75.36,73,5.17,94,NG,1596784950
Sinnamary,5.38,-52.95,75.45,85,6.62,5,GF,1596784950
Adrar,20.5,-10.07,87.46,20,17.16,0,MR,1596784763
Canary Islands,28.0,-15.5,73.4,69,20.8,75,ES,1596784951
Hambantota,6.12,81.12,86.0,74,10.29,75,LK,1596784678
Tarauacá,-8.16,-70.77,70.95,66,1.9,14,BR,1596784951
Bilma,18.69,12.92,85.21,55,9.64,95,NE,1596784951
Grootfontein,-19.57,18.12,46.9,46,11.3,0,NA,1596784952
Nome,64.5,-165.41,52.0,100,8.05,90,US,1596784952
Narovchat,53.88,43.69,72.79,71,10.96,97,RU,1596784834
Clyde,41.3,-82.98,59.0,87,1.32,0,US,1596784824
Brae,60.4,-1.35,57.2,93,11.41,40,GB,1596784953
Santa Lucía,27.91,-15.54,73.4,69,20.8,75,ES,1596784923
Rapid Valley,44.06,-103.15,64.4,87,5.82,1,US,1596784953
Arlit,18.74,7.39,86.79,48,18.14,3,NE,1596784781
Ostrovnoy,68.05,39.51,60.78,74,13.02,100,RU,1596784689
Lakatoro,-16.1,167.42,77.0,69,8.05,40,VU,1596784954
General Pico,-35.66,-63.76,41.83,65,6.02,100,AR,1596784954
Aasiaat,68.71,-52.87,36.19,84,8.19,15,GL,1596784955
Micheweni,-4.97,39.83,79.3,68,11.48,20,TZ,1596784955
Makubetsu,45.37,141.82,60.8,93,17.22,75,JP,1596784955
Durban,-29.86,31.03,62.6,39,14.99,0,ZA,1596784828
Umm Hājar,13.3,19.7,77.68,79,12.62,81,TD,1596784664
Dubti,11.74,41.09,83.25,54,7.58,100,ET,1596784956
Metaxades,41.42,26.23,82.4,58,17.22,20,GR,1596784956
Hatta,24.12,79.6,90.63,57,8.28,84,IN,1596784957
Pingliang,35.54,106.69,88.88,34,10.76,8,CN,1596784957
Nadym,65.53,72.52,74.59,52,5.12,46,RU,1596784957
Cabadiangan,9.75,122.47,81.73,77,7.45,100,PH,1596784957
Berlevåg,70.86,29.09,55.4,87,2.24,100,NO,1596784958
Sechura,-5.56,-80.82,60.94,80,6.33,80,PE,1596784958
Kapuskasing,49.42,-82.43,59.0,87,5.82,5,CA,1596784958
Coxim,-18.51,-54.76,62.49,41,4.41,0,BR,1596784958
Vila Franca do Campo,37.72,-25.43,62.6,88,3.36,20,PT,1596784959
Bandar,2.05,99.75,96.39,38,3.78,46,ID,1596784959
Loviisa,60.46,26.23,69.01,84,3.56,16,FI,1596784959
Monkey Bay,-14.07,34.92,74.37,59,8.99,0,MW,1596784959
Oranjestad,12.52,-70.03,82.4,78,20.8,40,AW,1596784959
Nokaneng,-19.67,22.27,57.06,32,8.16,0,BW,1596784960
Vaitape,-16.52,-151.75,78.76,76,19.55,4,PF,1596784764
Aripuanã,-9.17,-60.63,71.15,55,2.33,5,BR,1596784382
Villanueva de la Serena,38.98,-5.8,78.01,54,1.01,0,ES,1596784961
Flin Flon,54.77,-101.86,66.09,65,4.23,9,CA,1596784666
Ormara,25.21,64.64,86.63,81,9.78,100,PK,1596784961
Vila,42.03,-8.16,64.4,93,1.12,75,PT,1596784758
Ballitoville,-29.54,31.21,62.6,39,14.99,0,ZA,1596784962
Afuá,-0.16,-50.39,75.06,92,4.88,10,BR,1596784962
Boca Raton,26.36,-80.08,79.0,71,6.85,1,US,1596784962
Namwala,-15.75,26.44,71.17,29,3.96,0,ZM,1596784962
Tomatlán,19.93,-105.25,78.17,89,1.39,100,MX,1596784963
Nador,35.17,-2.93,78.8,78,8.05,75,MA,1596784832
Birigui,-21.29,-50.34,59.07,54,9.37,0,BR,1596784963
Abu Kamal,34.45,40.92,97.27,21,13.2,0,SY,1596784963
